{
  "type": "FeatureCollection",
  "features": [
    {
      "type": "Feature",
      "properties": { "name": "FOB1", "icon": "trailer" },
      "geometry": { "type": "Point", "coordinates": [-118.7242, 39.4204] }
    },
    {
      "type": "Feature",
      "properties": { "name": "HUB-C2" },
      "geometry": { "type": "Point", "coordinates": [-94.2203, 35.2012] }
    },
    {
      "type": "Feature",
      "properties": { "name": "HUB-C3" },
      "geometry": { "type": "Point", "coordinates": [-87.732116, 43.812778] }
    },
    {
      "type": "Feature",
      "properties": { "name": "Hub-E1" },
      "geometry": { "type": "Point", "coordinates": [-73.1462, 44.4773] }
    },
    {
      "type": "Feature",
      "properties": { "name": "Hub-E3" },
      "geometry": { "type": "Point", "coordinates": [-82.547014, 30.332469] }
    },
    {
      "type": "Feature",
      "properties": { "name": "E6-1", "icon": "airplane", "tech": "PR-16" },
      "geometry": { "type": "Point", "coordinates": [ -123.872517, 41.669704] }
    },
    {
      "type": "Feature",
      "properties": { "name": "Point 6" },
      "geometry": { "type": "Point", "coordinates": [-80.57285, 28.48864] }
    },
    {
      "type": "Feature",
      "properties": { "name": "H_AK" },
      "geometry": { "type": "Point", "coordinates": [-76.867142, 38.811563] }
    },
    {
      "type": "Feature",
      "properties": { "name": "E" },
      "geometry": { "type": "Point", "coordinates": [-149.811871, 61.252815] }
    },
    {
      "type": "Feature",
      "properties": { "name": "Point 9" },
      "geometry": { "type": "Point", "coordinates": [-157.76579, 21.45062] }
    },
    {
      "type": "Feature",
      "properties": { "name": "NE" },
      "geometry": { "type": "Point", "coordinates": [-95.915086, 41.125063] }
    },
    {
      "type": "Feature",
      "properties": { "name": "Hub-E2" },
      "geometry": { "type": "Point", "coordinates": [-76.44905, 38.28625] }
    },
    {
      "type": "Feature",
      "properties": { "name": "Grand Forks" },
      "geometry": { "type": "Point", "coordinates": [-97.378979, 47.952266] }
    },
    {
      "type": "Feature",
      "properties": { "name": "HUB-C1" },
      "geometry": { "type": "Point", "coordinates": [-95.717720, 39.506018] }
    },
    {
      "type": "Feature",
      "properties": { "name": "B" },
      "geometry": { "type": "Point", "coordinates": [-116.76929328740175, 39.655821031300874] }
    },
    {
      "type": "Feature",
      "properties": { "name": "M" },
      "geometry": { "type": "Point", "coordinates": [-107.08658026262916, 40.388752383384144] }
    },
    {
      "type": "Feature",
      "properties": { "name": "sb", "icon": "boat" },
      "geometry": { "type": "Point", "coordinates": [-130.201351, 40.179091] }
    },
    {
      "type": "Feature",
      "properties": { "name": "Beale HFCGS" },
      "geometry": { "type": "Point", "coordinates": [-121.3599, 39.1115] }
    },
    {
      "type": "Feature",
      "properties": { "name": "bg" },
      "geometry": { "type": "Point", "coordinates": [-102.77791, 45.824294] }
    },
    {
      "type": "Feature",
      "properties": { "name": "PENT" },
      "geometry": { "type": "Point", "coordinates": [-77.05884, 38.87186] }
    },
    {
      "type": "Feature",
      "properties": { "name": "COS" },
      "geometry": { "type": "Point", "coordinates": [-104.700002, 38.83547] }
    },
    {
      "type": "Feature",
      "properties": { "name": "TB" },
      "geometry": { "type": "Point", "coordinates": [-82.4927, 27.8602] }
    },
    {
      "type": "Feature",
      "properties": { "name": "RR" },
      "geometry": { "type": "Point", "coordinates": [-77.41935, 39.7335] }
    },
    {
      "type": "Feature",
      "properties": { "name": "AZ" },
      "geometry": { "type": "Point", "coordinates": [-110.35014, 31.5569] }
    },
    {
      "type": "Feature",
      "properties": { "name": "IP" },
      "geometry": { "type": "Point", "coordinates": [-157.91053, 21.38558] }
    },
    {
      "type": "Feature",
      "properties": { "name": "SAN" },
      "geometry": { "type": "Point", "coordinates": [-117.2031, 32.7027] }
    },
    {
      "type": "Feature",
      "properties": { "name": "SBL" },
      "geometry": { "type": "Point", "coordinates": [-76.30273054941598, 36.92287763521092] }
    },
    {
      "type": "Feature",
      "properties": { "name": "LUL" },
      "geometry": { "type": "Point", "coordinates": [-158.187373, 21.439439] }
    },
    {
      "type": "Feature",
      "properties": { "name": "Niscemi", "type": "TMR" },
      "geometry": { "type": "Point", "coordinates": [14.3878135, 37.1485509] }
    },
    {
      "type": "Feature",
      "properties": { "name": "Cutler", "type": "TMR" },
      "geometry": { "type": "Point", "coordinates": [-67.2616, 44.6579] }
    },
    {
      "type": "Feature",
      "properties": { "name": "Grindavik", "type": "TMR" },
      "geometry": { "type": "Point", "coordinates": [-22.43931, 63.83849] }
    },
    {
      "type": "Feature",
      "properties": { "name": "Awase", "type": "TMR" },
      "geometry": { "type": "Point", "coordinates": [127.83472, 26.31861] }
    },
    {
      "type": "Feature",
      "properties": { "name": "Harold E. Holt", "type": "TMR" },
      "geometry": { "type": "Point", "coordinates": [114.1592, -21.8097] }
    },
    {
      "type": "Feature",
      "properties": { "name": "Aguada", "type": "TMR" },
      "geometry": { "type": "Point", "coordinates": [-67.18824, 18.37939] }
    },
    {
      "type": "Feature",
      "properties": { "name": "Wahiawa", "type": "TMR" },
      "geometry": { "type": "Point", "coordinates": [-158.026123, 21.501633] }
    },
    {
      "type": "Feature",
      "properties": { "name": "Naples", "type": "TMR", "group": "WHITE_GROUP" },
      "geometry": { "type": "Point", "coordinates": [14.2681, 40.8522] }
    },
    {
      "type": "Feature",
      "properties": { "name": "Dixon", "type": "TMR" },
      "geometry": { "type": "Point", "coordinates": [-121.8233, 38.4455] }
    },
    {
      "type": "Feature",
      "properties": { "name": "Jim Creek", "type": "TMR" },
      "geometry": { "type": "Point", "coordinates": [-122.0142, 48.21] }
    },
    {
      "type": "Feature",
      "properties": { "name": "La Moure", "type": "TMR" },
      "geometry": { "type": "Point", "coordinates": [-98.2948, 46.3572] }
    },
    {
      "type": "Feature",
      "properties": { "name": "Norfolk", "type": "TMR" },
      "geometry": { "type": "Point", "coordinates": [-76.2859, 36.8508] }
    },
    {
      "type": "Feature",
      "properties": { "name": "Yokosuka", "type": "TMR" },
      "geometry": { "type": "Point", "coordinates": [139.6672, 35.281] }
    },
    {
      "type": "Feature",
      "properties": { "name": "MOB", "type": "TMR" },
      "geometry": { "type": "Point", "coordinates": [-97.5164, 35.4676] }
    },
    {
      "type": "Feature",
      "properties": { "name": "Hub-W1" },
      "geometry": { "type": "Point", "coordinates": [-117.686219, 42.078896] }
    },
    {
      "type": "Feature",
      "properties": { "name": "Hub-W3" },
      "geometry": { "type": "Point", "coordinates": [-118.886914, 36.835072] }
    },
    {
      "type": "Feature",
      "properties": { "name": "Hub-W2" },
      "geometry": { "type": "Point", "coordinates": [-115.320093, 39.330707] }
    },
    {
      "type": "Feature",
      "properties": { "name": "HUB2" },
      "geometry": { "type": "Point", "coordinates": [9.077213, 48.734127] }
    },
    {
      "type": "Feature",
      "properties": { "name": "MLST" },
      "geometry": { "type": "Point", "coordinates": [-123.708906, 39.338853] }
    },
    {
      "type": "Feature",
      "properties": { "name": "E6-2", "icon": "airplane" },
      "geometry": { "type": "Point", "coordinates": [ -128.088381, 44.051876] }
    },
    {
      "type": "Feature",
      "properties": { "name": "LRT1", "tech": "PR-16" },
      "geometry": { "type": "Point", "coordinates": [-122.650018, 41.258979] }
    },
    {
      "type": "Feature",
      "properties": { "name": "LRT2" },
      "geometry": { "type": "Point", "coordinates": [-120.770316, 37.753243] }
    },
    {
      "type": "Feature",
      "properties": { "name": "FOB2" },
      "geometry": { "type": "Point", "coordinates": [-82.9988, 39.9612] }
    },
    {
      "type": "Feature",
      "properties": { "name": "E6-3" },
      "geometry": { "type": "Point", "coordinates": [-117.686219, 42.078896] }
    },
    {
      "type": "Feature",
      "properties": { "name": "E6-4" },
      "geometry": { "type": "Point", "coordinates": [-115.320093, 39.330707] }
    },
    {
      "type": "Feature",
      "properties": { "name": "E6-5" },
      "geometry": { "type": "Point", "coordinates": [-118.886914, 36.835072] }
    },
    {
      "type": "Feature",
      "properties": { "name": "E6-6" },
      "geometry": { "type": "Point", "coordinates": [-82.547014, 30.332469] }
    },
    {
      "type": "Feature",
      "properties": { "name": "E6-7" },
      "geometry": { "type": "Point", "coordinates": [-73.1462, 44.4773] }
    },
    {
      "type": "Feature",
      "properties": { "name": "E6-8" },
      "geometry": { "type": "Point", "coordinates": [-76.44905, 38.28625] }
    },
    {
      "type": "Feature",
      "properties": { "name": "NAOC" },
      "geometry": { "type": "Point", "coordinates": [-95.13952, 46.254161] }
    },
    {
      "type": "Feature",
      "properties": { "name": "LRT3", "tech": "PR-16" },
      "geometry": { "type": "Point", "coordinates": [ -75.273159, 43.663940] }
    },
    {
      "type": "Feature",
      "properties": { "name": "Ship"},
      "geometry": { "type": "Point", "coordinates": [-132.566765, 43.810408] }
    }
  ]
}