{
  "type": "FeatureCollection",
  "features": [
    { "type": "Feature", "properties": { "name": "HUB-112", "icon":"trailer" }, "geometry": { "type": "Point", "coordinates": [-118.7242, 39.4204] } },
    { "type": "Feature", "properties": { "name": "Point 2" }, "geometry": { "type": "Point", "coordinates": [-94.2203, 35.2012] } },
    { "type": "Feature", "properties": { "name": "Point 3" }, "geometry": { "type": "Point", "coordinates": [-73.1462, 44.4773] } },
    { "type": "Feature", "properties": { "name": "Point 4" }, "geometry": { "type": "Point", "coordinates": [-86.68194, 36.12667] } },
    { "type": "Feature", "properties": { "name": "E6", "icon": "airplane" }, "geometry": { "type": "Point", "coordinates": [-121.826695, 41.694258] } },
    { "type": "Feature", "properties": { "name": "Point 6" }, "geometry": { "type": "Point", "coordinates": [-80.57285, 28.48864] } },
    { "type": "Feature", "properties": { "name": "H_AK" }, "geometry": { "type": "Point", "coordinates": [-76.867142, 38.811563] } },
    { "type": "Feature", "properties": { "name": "E" }, "geometry": { "type": "Point", "coordinates": [-149.811871, 61.252815] } },
    { "type": "Feature", "properties": { "name": "Point 9" }, "geometry": { "type": "Point", "coordinates": [-157.76579, 21.45062] } },
    { "type": "Feature", "properties": { "name": "NE" }, "geometry": { "type": "Point", "coordinates": [-95.915086, 41.125063] } },
    { "type": "Feature", "properties": { "name": "Point 11" }, "geometry": { "type": "Point", "coordinates": [-76.44905, 38.28625] } },
    { "type": "Feature", "properties": { "name": "Point 12" }, "geometry": { "type": "Point", "coordinates": [-120.5274, 33.742] } },
    { "type": "Feature", "properties": { "name": "Point 13" }, "geometry": { "type": "Point", "coordinates": [-97.378979, 47.952266] } },
    { "type": "Feature", "properties": { "name": "Point 14" }, "geometry": { "type": "Point", "coordinates": [-97.4165753955899, 37.66291116755573] } },
    { "type": "Feature", "properties": { "name": "B" }, "geometry": { "type": "Point", "coordinates": [-116.76929328740175, 39.655821031300874] } },
    { "type": "Feature", "properties": { "name": "M" }, "geometry": { "type": "Point", "coordinates": [-107.08658026262916, 40.388752383384144] } },
    { "type": "Feature", "properties": { "name": "sb", "icon":"boat"}, "geometry": { "type": "Point", "coordinates": [-131.808665, 40.665136] } },
    { "type": "Feature", "properties": { "name": "Beale HFCGS" }, "geometry": { "type": "Point", "coordinates": [-121.3599, 39.1115] } },
    { "type": "Feature", "properties": { "name": "bg" }, "geometry": { "type": "Point", "coordinates": [-98.05674958276393, 42.15430638202701] } },
    { "type": "Feature", "properties": { "name": "PENT" }, "geometry": { "type": "Point", "coordinates": [-77.05884, 38.87186] } },
    { "type": "Feature", "properties": { "name": "COS" }, "geometry": { "type": "Point", "coordinates": [-104.700002, 38.83547] } },
    { "type": "Feature", "properties": { "name": "TB" }, "geometry": { "type": "Point", "coordinates": [-82.4927, 27.8602] } },
    { "type": "Feature", "properties": { "name": "RR" }, "geometry": { "type": "Point", "coordinates": [-77.41935, 39.7335] } },
    { "type": "Feature", "properties": { "name": "AZ" }, "geometry": { "type": "Point", "coordinates": [-110.35014, 31.5569] } },
    { "type": "Feature", "properties": { "name": "IP" }, "geometry": { "type": "Point", "coordinates": [-157.91053, 21.38558] } },
    { "type": "Feature", "properties": { "name": "SAN" }, "geometry": { "type": "Point", "coordinates": [-117.2031, 32.7027] } },
    { "type": "Feature", "properties": { "name": "SBL" }, "geometry": { "type": "Point", "coordinates": [-76.30273054941598, 36.92287763521092] } },
    { "type": "Feature", "properties": { "name": "LUL" }, "geometry": { "type": "Point", "coordinates": [-158.187373, 21.439439] } },
    { "type": "Feature", "properties": { "name": "Niscemi", "type": "TMR" }, "geometry": { "type": "Point", "coordinates": [14.3878135, 37.1485509] } },
    { "type": "Feature", "properties": { "name": "Cutler", "type": "TMR" }, "geometry": { "type": "Point", "coordinates": [-67.2616, 44.6579] } },
    { "type": "Feature", "properties": { "name": "Grindavik", "type": "TMR" }, "geometry": { "type": "Point", "coordinates": [-22.43931, 63.83849] } },
    { "type": "Feature", "properties": { "name": "Awase", "type": "TMR" }, "geometry": { "type": "Point", "coordinates": [127.83472, 26.31861] } },
    { "type": "Feature", "properties": { "name": "Harold E. Holt", "type": "TMR" }, "geometry": { "type": "Point", "coordinates": [114.1592, -21.8097] } },
    { "type": "Feature", "properties": { "name": "Aguada", "type": "TMR" }, "geometry": { "type": "Point", "coordinates": [-67.18824, 18.37939] }},
    { "type": "Feature", "properties": { "name": "Wahiawa", "type": "TMR" }, "geometry": { "type": "Point", "coordinates": [-158.026123, 21.501633] } },
    { "type": "Feature", "properties": { "name": "Naples", "type": "TMR", "group": "WHITE_GROUP" }, "geometry": { "type": "Point", "coordinates": [14.2681, 40.8522] } },
    { "type": "Feature", "properties": { "name": "Dixon", "type": "TMR" }, "geometry": { "type": "Point", "coordinates": [-121.8233, 38.4455] } },
    { "type": "Feature", "properties": { "name": "Jim Creek", "type": "TMR" }, "geometry": { "type": "Point", "coordinates": [-122.0142, 48.2100] } },
    { "type": "Feature", "properties": { "name": "La Moure", "type": "TMR" }, "geometry": { "type": "Point", "coordinates": [-98.2948, 46.3572] } },
    { "type": "Feature", "properties": { "name": "Norfolk", "type": "TMR" }, "geometry": { "type": "Point", "coordinates": [-76.2859, 36.8508] } },
    { "type": "Feature", "properties": { "name": "Yokosuka", "type": "TMR" }, "geometry": { "type": "Point", "coordinates": [139.6672, 35.2810] } },
    { "type": "Feature", "properties": { "name": "Oklahoma City", "type": "TMR" }, "geometry": { "type": "Point", "coordinates": [-97.5164, 35.4676] } },
    {
      "type": "Feature",
      "properties": { "name": "Hub" },
      "geometry": { "type": "Point", "coordinates": [-117.686219, 42.078896] }
    },
    {
      "type": "Feature",
      "properties": { "name": "HUB-122"},
      "geometry": { "type": "Point", "coordinates": [-118.886914, 36.835072] }
    },
    {
      "type": "Feature",
      "properties": { "name": "Hub" },
      "geometry": { "type": "Point", "coordinates": [-115.320093, 39.330707] }
    },
    {
      "type": "Feature",
      "properties": { "name": "MLST" },
      "geometry": { "type": "Point", "coordinates": [-124.153609, 40.762300] }
    },
    {
      "type": "Feature",
      "properties": { "name": "E6", "icon":"airplane" },
      "geometry": { "type": "Point", "coordinates": [-127.336670, 40.647058] }
    },
    {
      "type": "Feature",
      "properties": { "name": "LRT"},
      "geometry": { "type": "Point", "coordinates": [-122.650018, 41.258979] }
    },
    {
      "type": "Feature",
      "properties": { "name": "LRT"},
      "geometry": { "type": "Point", "coordinates": [-120.770316, 37.753243] }
    },
    {
      "type": "Feature",
      "properties": { "name": "Ohio Pin" },
      "geometry": { "type": "Point", "coordinates": [-82.9988, 39.9612] }
    }
  ]
}